$GPGGA,073349.200,3928.9149,N,08719.7360,W,1,4,2.06,172.3,M,-33.8,M,,*64

$GPGGA,073349.300,3928.9149,N,08719.7360,W,1,4,2.06,172.3,M,-33.8,M,,*65

$GPGGA,073349.400,3928.9150,N,08719.7361,W,1,4,2.06,172.3,M,-33.8,M,,*6B

$GPGGA,073349.500,3928.9151,N,08719.7361,W,1,4,2.06,172.3,M,-33.8,M,,*6B

$GPGGA,073349.600,3928.9151,N,08719.7361,W,1,4,2.06,172.3,M,-33.8,M,,*68

$GPGGA,073349.700,3928.9152,N,08719.7361,W,1,4,2.06,172.3,M,-33.8,M,,*6A

$GPGGA,073349.800,3928.9153,N,08719.7361,W,1,4,2.06,172.3,M,-33.8,M,,*64

$GPGGA,073349.900,3928.9154,N,08719.7360,W,1,4,2.06,172.3,M,-33.8,M,,*63

$GPGGA,073350.000,3928.9154,N,08719.7360,W,1,4,2.06,172.3,M,-33.8,M,,*62

$GPGGA,073350.100,3928.9155,N,08719.7360,W,1,4,2.06,172.3,M,-33.8,M,,*62

$GPGGA,073350.200,3928.9156,N,08719.7360,W,1,4,2.06,172.4,M,-33.8,M,,*65

$GPGGA,073350.300,3928.9156,N,08719.7360,W,1,4,2.06,172.4,M,-33.8,M,,*64

$GPGGA,073350.400,3928.9157,N,08719.7360,W,1,4,2.06,172.4,M,-33.8,M,,*62

$GPGGA,073350.500,3928.9158,N,08719.7360,W,1,4,2.06,172.4,M,-33.8,M,,*6C

$GPGGA,073350.600,3928.9158,N,08719.7360,W,1,4,2.06,172.4,M,-33.8,M,,*6F

$GPGGA,073350.700,3928.9159,N,08719.7360,W,1,4,2.06,172.4,M,-33.8,M,,*6F

$GPGGA,073350.800,3928.9160,N,08719.7360,W,1,4,2.06,172.4,M,-33.8,M,,*6A

$GPGGA,073350.900,3928.9161,N,08719.7360,W,1,4,2.06,172.4,M,-33.8,M,,*6A

$GPGGA,073351.000,3928.9161,N,08719.7360,W,1,4,2.06,172.4,M,-33.8,M,,*62

$GPGGA,073351.100,3928.9162,N,08719.7360,W,1,4,2.06,172.4,M,-33.8,M,,*60

$GPGGA,073351.200,3928.9163,N,08719.7360,W,1,4,2.06,172.4,M,-33.8,M,,*62

$GPGGA,073351.300,3928.9163,N,08719.7360,W,1,4,2.06,172.4,M,-33.8,M,,*63

$GPGGA,073351.400,3928.9164,N,08719.7360,W,1,4,2.06,172.4,M,-33.8,M,,*63

$GPGGA,073351.500,3928.9165,N,08719.7360,W,1,4,2.06,172.4,M,-33.8,M,,*63

$GPGGA,073351.600,3928.9165,N,08719.7360,W,1,4,2.06,172.5,M,-33.8,M,,*61

$GPGGA,073351.700,3928.9166,N,08719.7360,W,1,4,2.06,172.5,M,-33.8,M,,*63

$GPGGA,073351.800,3928.9166,N,08719.7359,W,1,4,2.06,172.5,M,-33.8,M,,*66

$GPGGA,073351.900,3928.9167,N,08719.7359,W,1,4,2.06,172.5,M,-33.8,M,,*66

$GPGGA,073352.000,3928.9167,N,08719.7359,W,1,4,2.06,172.5,M,-33.8,M,,*6C

$GPGGA,073352.100,3928.9168,N,08719.7360,W,1,4,2.06,172.5,M,-33.8,M,,*68

$GPGGA,073352.200,3928.9169,N,08719.7360,W,1,4,2.06,172.5,M,-33.8,M,,*6A

$GPGGA,073352.300,3928.9169,N,08719.7360,W,1,4,2.06,172.5,M,-33.8,M,,*6B

$GPGGA,073352.400,3928.9170,N,08719.7360,W,1,4,2.06,172.5,M,-33.8,M,,*64

$GPGGA,073352.500,3928.9171,N,08719.7360,W,1,4,2.06,172.5,M,-33.8,M,,*64

$GPGGA,073352.600,3928.9171,N,08719.7360,W,1,4,2.06,172.6,M,-33.8,M,,*64

$GPGGA,073352.700,3928.9172,N,08719.7361,W,1,4,2.06,172.6,M,-33.8,M,,*67

$GPGGA,073352.800,3928.9172,N,08719.7360,W,1,4,2.06,172.6,M,-33.8,M,,*69

$GPGGA,073352.900,3928.9172,N,08719.7359,W,1,4,2.06,172.6,M,-33.8,M,,*62

$GPGGA,073353.000,3928.9172,N,08719.7357,W,1,4,2.06,172.6,M,-33.8,M,,*64

$GPGGA,073353.100,3928.9171,N,08719.7356,W,1,4,2.06,172.6,M,-33.8,M,,*67

$GPGGA,073353.200,3928.9171,N,08719.7355,W,1,4,2.06,172.6,M,-33.8,M,,*67

$GPGGA,073353.300,3928.9171,N,08719.7354,W,1,4,2.06,172.6,M,-33.8,M,,*67

$GPGGA,073353.400,3928.9171,N,08719.7353,W,1,4,2.06,172.6,M,-33.8,M,,*67

$GPGGA,073353.500,3928.9171,N,08719.7353,W,1,4,2.06,172.6,M,-33.8,M,,*66

$GPGGA,073353.600,3928.9171,N,08719.7352,W,1,4,2.06,172.6,M,-33.8,M,,*64

$GPGGA,073353.700,3928.9171,N,08719.7351,W,1,4,2.06,172.6,M,-33.8,M,,*66

$GPGGA,073353.800,3928.9170,N,08719.7350,W,1,4,2.06,172.6,M,-33.8,M,,*69

$GPGGA,073353.900,3928.9170,N,08719.7350,W,1,4,2.06,172.7,M,-33.8,M,,*69

$GPGGA,073354.000,3928.9171,N,08719.7349,W,1,4,2.06,172.7,M,-33.8,M,,*6E

$GPGGA,073354.100,3928.9171,N,08719.7349,W,1,4,2.06,172.7,M,-33.8,M,,*6F

$GPGGA,073354.200,3928.9170,N,08719.7348,W,1,4,2.06,172.7,M,-33.8,M,,*6C

$GPGGA,073354.300,3928.9170,N,08719.7348,W,1,4,2.06,172.7,M,-33.8,M,,*6D

$GPGGA,073354.400,3928.9170,N,08719.7347,W,1,4,2.06,172.7,M,-33.8,M,,*65

$GPGGA,073354.500,3928.9170,N,08719.7347,W,1,4,2.06,172.7,M,-33.8,M,,*64

$GPGGA,073354.600,3928.9169,N,08719.7346,W,1,4,2.06,172.7,M,-33.8,M,,*6E

$GPGGA,073354.700,3928.9169,N,08719.7346,W,1,4,2.06,172.7,M,-33.8,M,,*6F

$GPGGA,073354.800,3928.9169,N,08719.7345,W,1,4,2.06,172.7,M,-33.8,M,,*63

$GPGGA,073354.900,3928.9168,N,08719.7345,W,1,4,2.06,172.7,M,-33.8,M,,*63

$GPGGA,073355.000,3928.9168,N,08719.7344,W,1,4,2.06,172.7,M,-33.8,M,,*6A

$GPGGA,073355.100,3928.9168,N,08719.7344,W,1,4,2.06,172.7,M,-33.8,M,,*6B

$GPGGA,073355.200,3928.9168,N,08719.7343,W,1,4,2.06,172.8,M,-33.8,M,,*60

$GPGGA,073355.300,3928.9168,N,08719.7342,W,1,4,2.06,172.8,M,-33.8,M,,*60

$GPGGA,073355.400,3928.9168,N,08719.7341,W,1,4,2.06,172.8,M,-33.8,M,,*64

$GPGGA,073355.500,3928.9168,N,08719.7341,W,1,4,2.06,172.8,M,-33.8,M,,*65

$GPGGA,073355.600,3928.9168,N,08719.7340,W,1,4,2.06,172.8,M,-33.8,M,,*67

$GPGGA,073355.700,3928.9168,N,08719.7340,W,1,4,2.06,172.8,M,-33.8,M,,*66

$GPGGA,073355.800,3928.9168,N,08719.7339,W,1,4,2.06,172.8,M,-33.8,M,,*67

$GPGGA,073355.900,3928.9168,N,08719.7339,W,1,4,2.06,172.8,M,-33.8,M,,*66

$GPGGA,073356.000,3928.9168,N,08719.7338,W,1,4,2.06,172.8,M,-33.8,M,,*6D

$GPGGA,073356.100,3928.9168,N,08719.7338,W,1,4,2.06,172.8,M,-33.8,M,,*6C

$GPGGA,073356.200,3928.9168,N,08719.7338,W,1,4,2.06,172.8,M,-33.8,M,,*6F

$GPGGA,073356.300,3928.9167,N,08719.7338,W,1,4,2.06,172.8,M,-33.8,M,,*61

$GPGGA,073356.400,3928.9167,N,08719.7338,W,1,4,2.06,172.8,M,-33.8,M,,*66

$GPGGA,073356.500,3928.9167,N,08719.7338,W,1,4,2.06,172.9,M,-33.8,M,,*66

$GPGGA,073356.600,3928.9167,N,08719.7338,W,1,4,2.06,172.9,M,-33.8,M,,*65

$GPGGA,073356.700,3928.9167,N,08719.7338,W,1,4,2.06,172.9,M,-33.8,M,,*64

$GPGGA,073356.800,3928.9166,N,08719.7337,W,1,4,2.06,172.9,M,-33.8,M,,*65

$GPGGA,073356.900,3928.9166,N,08719.7337,W,1,4,2.06,172.9,M,-33.8,M,,*64

$GPGGA,073357.000,3928.9166,N,08719.7337,W,1,4,2.06,172.9,M,-33.8,M,,*6C

$GPGGA,073357.100,3928.9166,N,08719.7337,W,1,4,2.06,172.9,M,-33.8,M,,*6D

$GPGGA,073357.200,3928.9166,N,08719.7337,W,1,4,2.06,172.9,M,-33.8,M,,*6E

$GPGGA,073357.300,3928.9166,N,08719.7337,W,1,5,1.51,172.9,M,-33.8,M,,*6F

$GPGGA,073357.400,3928.9167,N,08719.7336,W,1,5,1.51,172.9,M,-33.8,M,,*68

$GPGGA,073357.500,3928.9167,N,08719.7335,W,1,5,1.51,172.9,M,-33.8,M,,*6A

$GPGGA,073357.600,3928.9168,N,08719.7334,W,1,5,1.51,172.9,M,-33.8,M,,*67

$GPGGA,073357.700,3928.9169,N,08719.7333,W,1,5,1.51,172.9,M,-33.8,M,,*60

$GPGGA,073357.800,3928.9169,N,08719.7332,W,1,5,1.51,172.9,M,-33.8,M,,*6E

$GPGGA,073357.900,3928.9170,N,08719.7332,W,1,5,1.51,172.9,M,-33.8,M,,*67

$GPGGA,073358.000,3928.9170,N,08719.7331,W,1,5,1.51,172.9,M,-33.8,M,,*62

$GPGGA,073358.100,3928.9171,N,08719.7330,W,1,5,1.51,172.9,M,-33.8,M,,*63

$GPGGA,073358.200,3928.9171,N,08719.7329,W,1,5,1.51,172.9,M,-33.8,M,,*68

$GPGGA,073358.300,3928.9172,N,08719.7328,W,1,5,1.51,173.0,M,-33.8,M,,*63

$GPGGA,073358.400,3928.9172,N,08719.7328,W,1,5,1.51,173.0,M,-33.8,M,,*64

$GPGGA,073358.500,3928.9173,N,08719.7327,W,1,5,1.51,173.0,M,-33.8,M,,*6B

$GPGGA,073358.600,3928.9173,N,08719.7326,W,1,5,1.51,173.0,M,-33.8,M,,*69

$GPGGA,073358.700,3928.9174,N,08719.7326,W,1,5,1.51,173.0,M,-33.8,M,,*6F

$GPGGA,073358.800,3928.9174,N,08719.7325,W,1,5,1.51,173.0,M,-33.8,M,,*63

$GPGGA,073358.900,3928.9174,N,08719.7325,W,1,5,1.51,173.0,M,-33.8,M,,*62

$GPGGA,073359.000,3928.9175,N,08719.7324,W,1,5,1.51,173.0,M,-33.8,M,,*6A

$GPGGA,073359.100,3928.9175,N,08719.7324,W,1,5,1.51,173.0,M,-33.8,M,,*6B

$GPGGA,073359.200,3928.9175,N,08719.7324,W,1,5,1.51,173.0,M,-33.8,M,,*68

$GPGGA,073359.300,3928.9175,N,08719.7324,W,1,5,1.51,173.0,M,-33.8,M,,*69

$GPGGA,073359.400,3928.9175,N,08719.7324,W,1,5,1.51,173.0,M,-33.8,M,,*6E

$GPGGA,073359.500,3928.9175,N,08719.7324,W,1,5,1.51,173.0,M,-33.8,M,,*6F

$GPGGA,073359.600,3928.9175,N,08719.7324,W,1,5,1.51,173.0,M,-33.8,M,,*6C

$GPGGA,073359.700,3928.9176,N,08719.7324,W,1,5,1.51,173.0,M,-33.8,M,,*6E

$GPGGA,073359.800,3928.9176,N,08719.7324,W,1,5,1.51,173.0,M,-33.8,M,,*61

$GPGGA,073359.900,3928.9176,N,08719.7324,W,1,5,1.51,173.0,M,-33.8,M,,*60

$GPGGA,073400.000,3928.9176,N,08719.7324,W,1,5,1.51,173.0,M,-33.8,M,,*62

$GPGGA,073400.100,3928.9176,N,08719.7324,W,1,5,1.51,173.0,M,-33.8,M,,*63

$GPGGA,073400.200,3928.9176,N,08719.7324,W,1,5,1.51,173.0,M,-33.8,M,,*60

$GPGGA,073400.300,3928.9176,N,08719.7324,W,1,5,3.37,173.0,M,-33.8,M,,*63

$GPGGA,073400.400,3928.9176,N,08719.7324,W,1,5,3.37,173.0,M,-33.8,M,,*64

$GPGGA,073400.500,3928.9176,N,08719.7324,W,1,5,3.37,173.0,M,-33.8,M,,*65

$GPGGA,073400.600,3928.9176,N,08719.7324,W,1,5,3.37,173.0,M,-33.8,M,,*66

$GPGGA,073400.700,3928.9177,N,08719.7324,W,1,5,3.37,173.0,M,-33.8,M,,*66

$GPGGA,073400.800,3928.9177,N,08719.7324,W,1,5,3.37,173.0,M,-33.8,M,,*69

$GPGGA,073400.900,3928.9177,N,08719.7324,W,1,5,3.37,173.0,M,-33.8,M,,*68

$GPGGA,073401.000,3928.9177,N,08719.7324,W,1,5,3.37,173.0,M,-33.8,M,,*60

$GPGGA,073401.100,3928.9177,N,08719.7324,W,1,5,3.37,173.0,M,-33.8,M,,*61

$GPGGA,073401.200,3928.9177,N,08719.7324,W,1,5,3.37,173.0,M,-33.8,M,,*62

$GPGGA,073401.300,3928.9177,N,08719.7324,W,1,5,3.37,173.0,M,-33.8,M,,*63

$GPGGA,073401.400,3928.9177,N,08719.7324,W,1,5,3.37,173.0,M,-33.8,M,,*64

$GPGGA,073401.500,3928.9177,N,08719.7324,W,1,5,1.51,173.0,M,-33.8,M,,*67

$GPGGA,073401.600,3928.9177,N,08719.7324,W,1,5,1.51,173.0,M,-33.8,M,,*64

$GPGGA,073401.700,3928.9178,N,08719.7324,W,1,5,1.51,173.0,M,-33.8,M,,*6A

$GPGGA,073401.800,3928.9178,N,08719.7324,W,1,5,1.51,173.0,M,-33.8,M,,*65

$GPGGA,073401.900,3928.9178,N,08719.7324,W,1,5,1.51,173.0,M,-33.8,M,,*64

$GPGGA,073402.000,3928.9178,N,08719.7324,W,1,5,1.51,173.0,M,-33.8,M,,*6E

$GPGGA,073402.100,3928.9178,N,08719.7323,W,1,5,1.51,173.0,M,-33.8,M,,*68

$GPGGA,073402.200,3928.9178,N,08719.7323,W,1,5,1.51,173.0,M,-33.8,M,,*6B

$GPGGA,073402.300,3928.9178,N,08719.7323,W,1,5,1.51,173.0,M,-33.8,M,,*6A

$GPGGA,073402.400,3928.9178,N,08719.7323,W,1,5,1.51,173.0,M,-33.8,M,,*6D

$GPGGA,073402.500,3928.9178,N,08719.7323,W,1,5,1.51,173.0,M,-33.8,M,,*6C

$GPGGA,073402.600,3928.9179,N,08719.7323,W,1,5,1.51,173.0,M,-33.8,M,,*6E

$GPGGA,073402.700,3928.9179,N,08719.7323,W,1,5,1.51,173.0,M,-33.8,M,,*6F

$GPGGA,073402.800,3928.9179,N,08719.7323,W,1,5,1.51,173.0,M,-33.8,M,,*60

$GPGGA,073402.900,3928.9179,N,08719.7323,W,1,5,1.51,173.0,M,-33.8,M,,*61

$GPGGA,073403.000,3928.9179,N,08719.7323,W,1,5,1.51,173.0,M,-33.8,M,,*69

$GPGGA,073403.100,3928.9179,N,08719.7322,W,1,5,1.51,173.0,M,-33.8,M,,*69

$GPGGA,073403.200,3928.9179,N,08719.7322,W,1,5,1.51,173.0,M,-33.8,M,,*6A

$GPGGA,073403.300,3928.9179,N,08719.7322,W,1,5,1.51,173.0,M,-33.8,M,,*6B

$GPGGA,073403.400,3928.9179,N,08719.7322,W,1,5,1.51,173.0,M,-33.8,M,,*6C

$GPGGA,073403.500,3928.9180,N,08719.7322,W,1,5,1.51,173.0,M,-33.8,M,,*6B

$GPGGA,073403.600,3928.9180,N,08719.7322,W,1,5,1.51,173.0,M,-33.8,M,,*68

$GPGGA,073403.700,3928.9180,N,08719.7322,W,1,5,1.51,173.0,M,-33.8,M,,*69

$GPGGA,073403.800,3928.9180,N,08719.7322,W,1,5,1.51,173.0,M,-33.8,M,,*66

$GPGGA,073403.900,3928.9180,N,08719.7321,W,1,5,1.51,173.0,M,-33.8,M,,*64

$GPGGA,073404.000,3928.9180,N,08719.7321,W,1,5,1.51,173.0,M,-33.8,M,,*6A

$GPGGA,073404.100,3928.9180,N,08719.7321,W,1,5,1.51,173.0,M,-33.8,M,,*6B

$GPGGA,073404.200,3928.9181,N,08719.7320,W,1,5,1.51,173.0,M,-33.8,M,,*68

$GPGGA,073404.300,3928.9181,N,08719.7318,W,1,5,1.51,173.0,M,-33.8,M,,*62

$GPGGA,073404.400,3928.9182,N,08719.7316,W,1,5,1.51,173.0,M,-33.8,M,,*68

$GPGGA,073404.500,3928.9182,N,08719.7315,W,1,5,1.51,173.0,M,-33.8,M,,*6A

$GPGGA,073404.600,3928.9183,N,08719.7313,W,1,5,1.51,173.0,M,-33.8,M,,*6E

$GPGGA,073404.700,3928.9183,N,08719.7312,W,1,5,1.51,173.0,M,-33.8,M,,*6E

$GPGGA,073404.800,3928.9183,N,08719.7310,W,1,5,1.51,173.0,M,-33.8,M,,*63

$GPGGA,073404.900,3928.9184,N,08719.7309,W,1,5,1.51,173.0,M,-33.8,M,,*6D

$GPGGA,073405.000,3928.9184,N,08719.7308,W,1,5,1.51,173.0,M,-33.8,M,,*64

$GPGGA,073405.100,3928.9184,N,08719.7307,W,1,5,1.51,173.0,M,-33.8,M,,*6A

$GPGGA,073405.200,3928.9185,N,08719.7305,W,1,5,1.51,173.0,M,-33.8,M,,*6A

$GPGGA,073405.300,3928.9185,N,08719.7305,W,1,5,1.51,173.1,M,-33.8,M,,*6A

$GPGGA,073405.400,3928.9185,N,08719.7304,W,1,5,1.51,173.1,M,-33.8,M,,*6C

$GPGGA,073405.500,3928.9185,N,08719.7303,W,1,5,1.51,173.1,M,-33.8,M,,*6A

$GPGGA,073405.600,3928.9185,N,08719.7302,W,1,5,1.51,173.1,M,-33.8,M,,*68

$GPGGA,073405.700,3928.9185,N,08719.7302,W,1,5,1.51,173.1,M,-33.8,M,,*69

$GPGGA,073405.800,3928.9185,N,08719.7301,W,1,5,1.51,173.1,M,-33.8,M,,*65

$GPGGA,073405.900,3928.9185,N,08719.7300,W,1,5,1.51,173.1,M,-33.8,M,,*65

$GPGGA,073406.000,3928.9185,N,08719.7299,W,1,5,1.51,173.1,M,-33.8,M,,*6E

$GPGGA,073406.100,3928.9186,N,08719.7299,W,1,5,1.51,173.1,M,-33.8,M,,*6C

$GPGGA,073406.200,3928.9186,N,08719.7298,W,1,5,1.51,173.1,M,-33.8,M,,*6E

$GPGGA,073406.300,3928.9186,N,08719.7297,W,1,5,1.51,173.1,M,-33.8,M,,*60

$GPGGA,073406.400,3928.9187,N,08719.7296,W,1,5,1.51,173.1,M,-33.8,M,,*67

$GPGGA,073406.500,3928.9187,N,08719.7296,W,1,5,1.51,173.1,M,-33.8,M,,*66

$GPGGA,073406.600,3928.9187,N,08719.7295,W,1,5,1.51,173.1,M,-33.8,M,,*66

$GPGGA,073406.700,3928.9187,N,08719.7294,W,1,5,1.51,173.1,M,-33.8,M,,*66

$GPGGA,073406.800,3928.9187,N,08719.7293,W,1,5,1.51,173.1,M,-33.8,M,,*6E

$GPGGA,073406.900,3928.9187,N,08719.7293,W,1,5,1.51,173.1,M,-33.8,M,,*6F

$GPGGA,073407.000,3928.9187,N,08719.7292,W,1,5,1.51,173.1,M,-33.8,M,,*66

$GPGGA,073407.100,3928.9187,N,08719.7292,W,1,5,1.51,173.1,M,-33.8,M,,*67

$GPGGA,073407.200,3928.9186,N,08719.7292,W,1,5,1.51,173.1,M,-33.8,M,,*65

$GPGGA,073407.300,3928.9186,N,08719.7292,W,1,5,1.51,173.1,M,-33.8,M,,*64

$GPGGA,073407.400,3928.9185,N,08719.7292,W,1,5,1.51,173.1,M,-33.8,M,,*60

$GPGGA,073407.500,3928.9185,N,08719.7291,W,1,5,1.51,173.1,M,-33.8,M,,*62

$GPGGA,073407.600,3928.9185,N,08719.7291,W,1,5,1.51,173.1,M,-33.8,M,,*61

$GPGGA,073407.700,3928.9185,N,08719.7290,W,1,5,1.51,173.1,M,-33.8,M,,*61

$GPGGA,073407.800,3928.9185,N,08719.7290,W,1,5,1.51,173.1,M,-33.8,M,,*6E

$GPGGA,073407.900,3928.9184,N,08719.7289,W,1,5,1.51,173.1,M,-33.8,M,,*66

$GPGGA,073408.000,3928.9184,N,08719.7289,W,1,5,1.51,173.1,M,-33.8,M,,*60

$GPGGA,073408.100,3928.9183,N,08719.7288,W,1,5,1.51,173.1,M,-33.8,M,,*67

$GPGGA,073408.200,3928.9183,N,08719.7288,W,1,5,1.51,173.1,M,-33.8,M,,*64

$GPGGA,073408.300,3928.9182,N,08719.7288,W,1,5,1.51,173.1,M,-33.8,M,,*64

$GPGGA,073408.400,3928.9182,N,08719.7287,W,1,5,1.51,173.1,M,-33.8,M,,*6C

$GPGGA,073408.500,3928.9182,N,08719.7287,W,1,5,1.51,173.1,M,-33.8,M,,*6D

$GPGGA,073408.600,3928.9181,N,08719.7287,W,1,5,1.51,173.1,M,-33.8,M,,*6D

$GPGGA,073408.700,3928.9181,N,08719.7287,W,1,5,1.51,173.1,M,-33.8,M,,*6C

$GPGGA,073408.800,3928.9181,N,08719.7286,W,1,5,1.51,173.1,M,-33.8,M,,*62

$GPGGA,073408.900,3928.9180,N,08719.7286,W,1,5,1.51,173.1,M,-33.8,M,,*62

$GPGGA,073409.000,3928.9180,N,08719.7286,W,1,5,1.51,173.1,M,-33.8,M,,*6A

$GPGGA,073409.100,3928.9180,N,08719.7286,W,1,5,1.51,173.1,M,-33.8,M,,*6B

$GPGGA,073409.200,3928.9180,N,08719.7285,W,1,5,1.51,173.1,M,-33.8,M,,*6B

$GPGGA,073409.300,3928.9179,N,08719.7285,W,1,5,1.51,173.0,M,-33.8,M,,*6D

$GPGGA,073409.400,3928.9179,N,08719.7285,W,1,5,1.51,173.0,M,-33.8,M,,*6A

$GPGGA,073409.500,3928.9179,N,08719.7284,W,1,5,1.51,173.0,M,-33.8,M,,*6A

$GPGGA,073409.600,3928.9179,N,08719.7284,W,1,5,1.51,173.0,M,-33.8,M,,*69

$GPGGA,073409.700,3928.9179,N,08719.7284,W,1,5,1.51,173.0,M,-33.8,M,,*68

$GPGGA,073409.800,3928.9179,N,08719.7284,W,1,5,1.51,173.0,M,-33.8,M,,*67

$GPGGA,073409.900,3928.9179,N,08719.7283,W,1,5,1.51,173.0,M,-33.8,M,,*61

$GPGGA,073410.000,3928.9179,N,08719.7283,W,1,5,1.51,173.0,M,-33.8,M,,*60

$GPGGA,073410.100,3928.9179,N,08719.7283,W,1,5,1.51,173.0,M,-33.8,M,,*61

$GPGGA,073410.200,3928.9179,N,08719.7283,W,1,5,1.51,173.0,M,-33.8,M,,*62

$GPGGA,073410.300,3928.9179,N,08719.7282,W,1,5,1.51,173.0,M,-33.8,M,,*62

$GPGGA,073410.400,3928.9178,N,08719.7282,W,1,5,1.51,173.0,M,-33.8,M,,*64

$GPGGA,073410.500,3928.9178,N,08719.7281,W,1,5,1.51,173.0,M,-33.8,M,,*66

$GPGGA,073410.600,3928.9178,N,08719.7281,W,1,5,1.51,173.0,M,-33.8,M,,*65

$GPGGA,073410.700,3928.9178,N,08719.7281,W,1,5,1.51,173.0,M,-33.8,M,,*64

$GPGGA,073410.800,3928.9179,N,08719.7280,W,1,5,1.51,173.0,M,-33.8,M,,*6B

$GPGGA,073410.900,3928.9179,N,08719.7280,W,1,4,1.73,173.0,M,-33.8,M,,*6B

$GPGGA,073411.000,3928.9179,N,08719.7279,W,1,4,1.73,173.0,M,-33.8,M,,*65

$GPGGA,073411.100,3928.9179,N,08719.7279,W,1,4,1.73,173.0,M,-33.8,M,,*64

$GPGGA,073411.200,3928.9179,N,08719.7279,W,1,4,1.73,173.0,M,-33.8,M,,*67

$GPGGA,073411.300,3928.9180,N,08719.7278,W,1,4,1.73,173.0,M,-33.8,M,,*61

$GPGGA,073411.400,3928.9180,N,08719.7278,W,1,4,1.74,173.0,M,-33.8,M,,*61

$GPGGA,073411.500,3928.9180,N,08719.7278,W,1,4,1.74,173.0,M,-33.8,M,,*60

$GPGGA,073411.600,3928.9181,N,08719.7277,W,1,4,1.73,173.0,M,-33.8,M,,*6A

$GPGGA,073411.700,3928.9181,N,08719.7277,W,1,4,1.73,173.0,M,-33.8,M,,*6B

$GPGGA,073411.800,3928.9181,N,08719.7277,W,1,4,1.73,173.1,M,-33.8,M,,*65

$GPGGA,073411.900,3928.9181,N,08719.7276,W,1,4,1.73,173.1,M,-33.8,M,,*65

$GPGGA,073412.000,3928.9182,N,08719.7276,W,1,4,1.73,173.1,M,-33.8,M,,*6C

$GPGGA,073412.100,3928.9182,N,08719.7276,W,1,4,1.73,173.1,M,-33.8,M,,*6D

$GPGGA,073412.200,3928.9182,N,08719.7276,W,1,4,1.73,173.1,M,-33.8,M,,*6E

$GPGGA,073412.300,3928.9183,N,08719.7275,W,1,4,1.73,173.1,M,-33.8,M,,*6D

$GPGGA,073412.400,3928.9183,N,08719.7275,W,1,4,1.74,173.1,M,-33.8,M,,*6D

$GPGGA,073412.500,3928.9183,N,08719.7275,W,1,4,1.73,173.1,M,-33.8,M,,*6B

$GPGGA,073412.600,3928.9183,N,08719.7275,W,1,4,1.73,173.1,M,-33.8,M,,*68

$GPGGA,073412.700,3928.9183,N,08719.7274,W,1,4,1.73,173.1,M,-33.8,M,,*68

$GPGGA,073412.800,3928.9183,N,08719.7274,W,1,4,1.73,173.1,M,-33.8,M,,*67

$GPGGA,073412.900,3928.9183,N,08719.7274,W,1,4,1.73,173.1,M,-33.8,M,,*66

$GPGGA,073413.000,3928.9183,N,08719.7274,W,1,4,1.73,173.1,M,-33.8,M,,*6E

$GPGGA,073413.100,3928.9183,N,08719.7274,W,1,4,1.73,173.1,M,-33.8,M,,*6F

$GPGGA,073413.200,3928.9183,N,08719.7274,W,1,4,1.74,173.1,M,-33.8,M,,*6B

$GPGGA,073413.300,3928.9183,N,08719.7274,W,1,4,1.73,173.1,M,-33.8,M,,*6D

$GPGGA,073413.400,3928.9183,N,08719.7274,W,1,4,1.73,173.1,M,-33.8,M,,*6A

$GPGGA,073413.500,3928.9183,N,08719.7274,W,1,5,1.51,173.1,M,-33.8,M,,*6A

$GPGGA,073413.600,3928.9183,N,08719.7274,W,1,5,1.51,173.1,M,-33.8,M,,*69

$GPGGA,073413.700,3928.9183,N,08719.7274,W,1,5,1.51,173.1,M,-33.8,M,,*68

$GPGGA,073413.800,3928.9183,N,08719.7274,W,1,5,1.51,173.1,M,-33.8,M,,*67

$GPGGA,073413.900,3928.9183,N,08719.7274,W,1,5,1.51,173.1,M,-33.8,M,,*66

